[{"address":"273 Bowery NYC 10002","latLong":{"lat":40.7237496,"lng":-73.992395}},{"address":"232 West 11th Street NYC 10014","latLong":{"lat":40.7360929,"lng":-74.0027594}},{"address":"283 West Broadway NYC 10013","latLong":{"lat":40.7208017,"lng":-74.0048389}},{"address":"232 W. 11th Street NYC 10014","latLong":{"lat":40.7360929,"lng":-74.0027594}},{"address":"220 West Houston Street NYC 10014","latLong":{"lat":40.7287153,"lng":-74.004578}},{"address":"253 Center Street NYC 10013","latLong":{"lat":40.7206388,"lng":-73.9980605}},{"address":"273 Bowery NYC 10002","latLong":{"lat":40.7237496,"lng":-73.992395}},{"address":"487 Hudson Street NYC 10014","latLong":{"lat":40.73261979999999,"lng":-74.0068029}},{"address":"292 Henry Street NYC 10002","latLong":{"lat":40.71371430000001,"lng":-73.983033}},{"address":"232 West 11th Street NYC 10014","latLong":{"lat":40.7360929,"lng":-74.0027594}},{"address":"141 Henry Street NYC 10002","latLong":{"lat":40.7134775,"lng":-73.9906663}},{"address":"220 West Houston Street NYC 10014","latLong":{"lat":40.7287153,"lng":-74.004578}},{"address":"83 Christopher Street  NYC 10014","latLong":{"lat":40.7336813,"lng":-74.0037717}},{"address":"50 Perry Street NYC 10014","latLong":{"lat":40.7355145,"lng":-74.0031001}},{"address":"232 West 11th Street NYC 10014","latLong":{"lat":40.7360929,"lng":-74.0027594}},{"address":"224 Waverly Place NYC 10014","latLong":{"lat":40.7360517,"lng":-74.0020724}},{"address":"154 Sullivan Street NYC 10012","latLong":{"lat":40.7273049,"lng":-74.0013706}},{"address":"273 Bowery Street NYC","latLong":{"lat":40.7237496,"lng":-73.992395}},{"address":"371 6th Avenue NYC 10014","latLong":{"lat":40.732613,"lng":-74.00070509999999}},{"address":"155 Sullivan Street NYC 10012","latLong":{"lat":40.727182,"lng":-74.001238}},{"address":"7 East 10th Strert NYC 10003","latLong":{"lat":40.7333068,"lng":-73.9947147}},{"address":"232 West 11th Street NYC South","latLong":{"lat":40.7360929,"lng":-74.0027594}},{"address":"81 Christopher Street NYC 10014","latLong":{"lat":40.7336975,"lng":-74.0035917}},{"address":"273 Bowery NYC 10002","latLong":{"lat":40.7237496,"lng":-73.992395}},{"address":"232 West 11th Street NYC 10014","latLong":{"lat":40.7360929,"lng":-74.0027594}},{"address":"232 West 11th Street NYC 10014","latLong":{"lat":40.7360929,"lng":-74.0027594}},{"address":"83 Christopher Street NYC 10014","latLong":{"lat":40.7336813,"lng":-74.0037717}},{"address":"220 West Houston Street NYC 10014","latLong":{"lat":40.7287153,"lng":-74.004578}},{"address":"273 Bowery NYC 10002","latLong":{"lat":40.7237496,"lng":-73.992395}}]